{
"type": "FeatureCollection",
"name": "ovl_punkter_v3",
"crs": { "type": "name", "properties": { "name": "urn:ogc:def:crs:OGC:1.3:CRS84" } },
"features": [
{ "type": "Feature", "properties": { "PSID": 386, "REF": "OS689", "STATION": "Vollen", "FCODE": "OVL", "FUNC": "SK", "YEAR": 1994, "Z": 5.9, "DATEREG": "1994-11-14", "DATECHANGE": "2023-09-15", "utm_x": 581268.12, "utm_y": 6564711.77 }, "geometry": { "type": "Point", "coordinates": [ 10.423429723148004, 59.21366798688279 ] } },
{ "type": "Feature", "properties": { "PSID": 487, "REF": "OS101", "STATION": "Langvika", "FCODE": "OVL", "FUNC": "SK", "YEAR": 0, "Z": 0.82, "DATEREG": "1995-06-14", "DATECHANGE": "2023-09-15", "utm_x": 579176.77, "utm_y": 6554354.55 }, "geometry": { "type": "Point", "coordinates": [ 10.383052238261516, 59.121078709736899 ] } },
{ "type": "Feature", "properties": { "PSID": 549, "REF": "OS118", "STATION": "Haug gamle", "FCODE": "OVL", "FUNC": "SK", "YEAR": 2020, "Z": 31.3, "DATEREG": "1995-06-20", "DATECHANGE": "2022-11-23", "utm_x": 580048.87, "utm_y": 6554222.14 }, "geometry": { "type": "Point", "coordinates": [ 10.398232337335562, 59.119726827039443 ] } },
{ "type": "Feature", "properties": { "PSID": 565, "REF": "OS671", "STATION": "Gipø Buss", "FCODE": "OVL", "FUNC": "SK", "YEAR": 0, "Z": 3.65, "DATEREG": "1994-11-17", "DATECHANGE": "2023-09-15", "utm_x": 580750.79, "utm_y": 6565657.57 }, "geometry": { "type": "Point", "coordinates": [ 10.414723141042687, 59.222257832745257 ] } },
{ "type": "Feature", "properties": { "PSID": 1288, "REF": "OS746", "STATION": "Sundby-kummen", "FCODE": "OVL", "FUNC": "SK", "YEAR": 1994, "Z": 4.22, "DATEREG": "1994-12-13", "DATECHANGE": "2025-01-16", "utm_x": 582090.52, "utm_y": 6564742.83 }, "geometry": { "type": "Point", "coordinates": [ 10.437840743868072, 59.213788423223875 ] } },
{ "type": "Feature", "properties": { "PSID": 1342, "REF": "OS624", "STATION": "Ekenesstokken", "FCODE": "OVL", "FUNC": "SK", "YEAR": 1994, "Z": 3.68, "DATEREG": "1994-12-15", "DATECHANGE": "2023-09-15", "utm_x": 581996.51, "utm_y": 6566412.17 }, "geometry": { "type": "Point", "coordinates": [ 10.436824592296901, 59.22879313422446 ] } },
{ "type": "Feature", "properties": { "PSID": 1519, "REF": "OS128", "STATION": "Treidene", "FCODE": "OVL", "FUNC": "SK", "YEAR": 1999, "Z": 1.54, "DATEREG": "2004-06-08", "DATECHANGE": "2025-02-18", "utm_x": 580199.1, "utm_y": 6549692.93 }, "geometry": { "type": "Point", "coordinates": [ 10.399198020990172, 59.079036092327627 ] } },
{ "type": "Feature", "properties": { "PSID": 1560, "REF": "OS102", "STATION": "Budalstrand", "FCODE": "OVL", "FUNC": "SK", "YEAR": 2003, "Z": 0.0, "DATEREG": "2004-10-19", "DATECHANGE": "2025-02-18", "utm_x": 579179.64, "utm_y": 6554913.88 }, "geometry": { "type": "Point", "coordinates": [ 10.383304781578783, 59.126099759567403 ] } },
{ "type": "Feature", "properties": { "PSID": 1652, "REF": "OS121", "STATION": "Ormelet", "FCODE": "OVL", "FUNC": "SK", "YEAR": 1997, "Z": 0.0, "DATEREG": "2004-11-16", "DATECHANGE": "2023-09-15", "utm_x": 581156.44, "utm_y": 6552867.89 }, "geometry": { "type": "Point", "coordinates": [ 10.41706970992665, 59.107358982258489 ] } },
{ "type": "Feature", "properties": { "PSID": 1748, "REF": "OS123", "STATION": "Hvasser skole", "FCODE": "OVL", "FUNC": "SK", "YEAR": 2002, "Z": 2.65, "DATEREG": "2005-09-30", "DATECHANGE": "2023-09-15", "utm_x": 582564.39, "utm_y": 6549439.51 }, "geometry": { "type": "Point", "coordinates": [ 10.440353970960953, 59.076309442895877 ] } },
{ "type": "Feature", "properties": { "PSID": 1848, "REF": "OS104", "STATION": "Svelvikstranda", "FCODE": "OVL", "FUNC": "SK", "YEAR": 0, "Z": 0.0, "DATEREG": "2008-02-18", "DATECHANGE": "2023-09-15", "utm_x": 578996.21, "utm_y": 6555874.35 }, "geometry": { "type": "Point", "coordinates": [ 10.380448215140243, 59.134756814059322 ] } },
{ "type": "Feature", "properties": { "PSID": 2027, "REF": "OS117", "STATION": "Haug Rimi", "FCODE": "OVL", "FUNC": "SK", "YEAR": 2008, "Z": 0.0, "DATEREG": "2008-09-19", "DATECHANGE": "2023-09-15", "utm_x": 580042.46, "utm_y": 6554351.92 }, "geometry": { "type": "Point", "coordinates": [ 10.398167880770748, 59.120893171791074 ] } },
{ "type": "Feature", "properties": { "PSID": 2090, "REF": "OS110", "STATION": "Vindåsen", "FCODE": "OVL", "FUNC": "SK", "YEAR": 0, "Z": 0.0, "DATEREG": "2008-09-23", "DATECHANGE": "2025-02-18", "utm_x": 580262.3, "utm_y": 6559414.25 }, "geometry": { "type": "Point", "coordinates": [ 10.403866391092009, 59.166300114898462 ] } },
{ "type": "Feature", "properties": { "PSID": 2415, "REF": "OS707", "STATION": "Årøysund", "FCODE": "OVL", "FUNC": "SO", "YEAR": 0, "Z": 0.0, "DATEREG": "1995-01-17", "DATECHANGE": "2023-09-15", "utm_x": 583391.0, "utm_y": 6561283.17 }, "geometry": { "type": "Point", "coordinates": [ 10.459285098719866, 59.182475742257012 ] } },
{ "type": "Feature", "properties": { "PSID": 2781, "REF": "OS115", "STATION": "Grimestad nedre", "FCODE": "OVL", "FUNC": "SK", "YEAR": 2013, "Z": 1.92, "DATEREG": "2013-06-20", "DATECHANGE": "2023-09-15", "utm_x": 580792.4, "utm_y": 6556209.47 }, "geometry": { "type": "Point", "coordinates": [ 10.411949340690912, 59.137428073047424 ] } },
{ "type": "Feature", "properties": { "PSID": 2844, "REF": "OS130", "STATION": "Lindhøy", "FCODE": "OVL", "FUNC": "SK", "YEAR": 2013, "Z": 10.83, "DATEREG": "2013-10-07", "DATECHANGE": "2023-09-15", "utm_x": 580351.66, "utm_y": 6552848.02 }, "geometry": { "type": "Point", "coordinates": [ 10.40301508796307, 59.107333208687031 ] } },
{ "type": "Feature", "properties": { "PSID": 2880, "REF": "OS127", "STATION": "Skåeveien", "FCODE": "OVL", "FUNC": "SK", "YEAR": 2012, "Z": 5.01, "DATEREG": "2014-02-24", "DATECHANGE": "2025-02-18", "utm_x": 580360.47, "utm_y": 6547764.68 }, "geometry": { "type": "Point", "coordinates": [ 10.4013067211869, 59.061694147735999 ] } },
{ "type": "Feature", "properties": { "PSID": 2897, "REF": "OS126", "STATION": "Grepan", "FCODE": "OVL", "FUNC": "SK", "YEAR": 2013, "Z": 4.09, "DATEREG": "2014-03-03", "DATECHANGE": "2025-02-18", "utm_x": 581064.74, "utm_y": 6548000.41 }, "geometry": { "type": "Point", "coordinates": [ 10.413670285753414, 59.063677244271005 ] } },
{ "type": "Feature", "properties": { "PSID": 3028, "REF": "OS119", "STATION": "Hulebakk", "FCODE": "OVL", "FUNC": "SK", "YEAR": 2014, "Z": 1.83, "DATEREG": "2014-12-17", "DATECHANGE": "2023-09-15", "utm_x": 580920.71, "utm_y": 6554797.15 }, "geometry": { "type": "Point", "coordinates": [ 10.413668289965468, 59.124724257467363 ] } },
{ "type": "Feature", "properties": { "PSID": 3474, "REF": "OS133", "STATION": "Midtgården", "FCODE": "OVL", "FUNC": "SK", "YEAR": 2017, "Z": 11.24, "DATEREG": "2017-10-18", "DATECHANGE": "2025-02-18", "utm_x": 580391.28, "utm_y": 6548637.7 }, "geometry": { "type": "Point", "coordinates": [ 10.402163307473034, 59.069526198018941 ] } },
{ "type": "Feature", "properties": { "PSID": 4098, "REF": "OS640", "STATION": "Arås", "FCODE": "OVL", "FUNC": "SK", "YEAR": 0, "Z": 1.29, "DATEREG": "1995-02-22", "DATECHANGE": "2023-09-15", "utm_x": 583039.01, "utm_y": 6562987.29 }, "geometry": { "type": "Point", "coordinates": [ 10.453777582210142, 59.197843450158139 ] } },
{ "type": "Feature", "properties": { "PSID": 4113, "REF": "OS706", "STATION": "Nøtterøy vaskeri", "FCODE": "OVL", "FUNC": "SK", "YEAR": 1995, "Z": 7.58, "DATEREG": "1995-02-22", "DATECHANGE": "2023-09-15", "utm_x": 582009.96, "utm_y": 6563915.75 }, "geometry": { "type": "Point", "coordinates": [ 10.436118347000924, 59.206378875173023 ] } },
{ "type": "Feature", "properties": { "PSID": 7724, "REF": "OS730", "STATION": "Hjemseng", "FCODE": "OVL", "FUNC": "SK", "YEAR": 0, "Z": 1.69, "DATEREG": "1995-04-21", "DATECHANGE": "2023-09-15", "utm_x": 582333.38, "utm_y": 6565645.2 }, "geometry": { "type": "Point", "coordinates": [ 10.442434743794275, 59.221842362635599 ] } },
{ "type": "Feature", "properties": { "PSID": 7780, "REF": "OS626", "STATION": "Neslund", "FCODE": "OVL", "FUNC": "SAO", "YEAR": 1994, "Z": 1.13, "DATEREG": "1995-04-21", "DATECHANGE": "2023-09-15", "utm_x": 582850.1, "utm_y": 6565825.19 }, "geometry": { "type": "Point", "coordinates": [ 10.451552658072893, 59.223357542755011 ] } },
{ "type": "Feature", "properties": { "PSID": 9575, "REF": "OS714", "STATION": "FOSSÅSVEIEN", "FCODE": "OVL", "FUNC": "SK", "YEAR": 0, "Z": 9.8, "DATEREG": "1995-06-23", "DATECHANGE": "2022-06-09", "utm_x": 582576.18, "utm_y": 6566732.12 }, "geometry": { "type": "Point", "coordinates": [ 10.447100054957561, 59.231552923176196 ] } },
{ "type": "Feature", "properties": { "PSID": 10233, "REF": "OS716", "STATION": "Kalvetangen", "FCODE": "OVL", "FUNC": "SK", "YEAR": 0, "Z": 2.25, "DATEREG": "1995-07-27", "DATECHANGE": "2023-09-15", "utm_x": 582492.64, "utm_y": 6568136.25 }, "geometry": { "type": "Point", "coordinates": [ 10.446170214870431, 59.24417470587202 ] } },
{ "type": "Feature", "properties": { "PSID": 10522, "REF": "OS715", "STATION": "Berglyveien", "FCODE": "OVL", "FUNC": "SK", "YEAR": 0, "Z": 0.93, "DATEREG": "1995-08-15", "DATECHANGE": "2023-09-15", "utm_x": 582065.46, "utm_y": 6567433.45 }, "geometry": { "type": "Point", "coordinates": [ 10.438418348384012, 59.237948319388067 ] } },
{ "type": "Feature", "properties": { "PSID": 10967, "REF": "OS718", "STATION": "Nedre Fjærholmvei", "FCODE": "OVL", "FUNC": "SO", "YEAR": 0, "Z": 2.4, "DATEREG": "1995-08-21", "DATECHANGE": "2023-09-15", "utm_x": 583295.07, "utm_y": 6567084.95 }, "geometry": { "type": "Point", "coordinates": [ 10.459828814511523, 59.23457972415347 ] } },
{ "type": "Feature", "properties": { "PSID": 10994, "REF": "OS614", "STATION": "Myrasundet", "FCODE": "OVL", "FUNC": "SK", "YEAR": 0, "Z": 2.02, "DATEREG": "1995-08-21", "DATECHANGE": "2023-09-15", "utm_x": 583073.66, "utm_y": 6567309.12 }, "geometry": { "type": "Point", "coordinates": [ 10.456035616308274, 59.236635659980138 ] } },
{ "type": "Feature", "properties": { "PSID": 14928, "REF": "OS734", "STATION": "Kjernåsveien", "FCODE": "OVL", "FUNC": "SA", "YEAR": 0, "Z": 24.76, "DATEREG": "1995-11-28", "DATECHANGE": "2023-09-15", "utm_x": 580003.39, "utm_y": 6567817.9 }, "geometry": { "type": "Point", "coordinates": [ 10.402429439398071, 59.241794194876313 ] } },
{ "type": "Feature", "properties": { "PSID": 17621, "REF": "OS683", "STATION": "LOFTERØD NORD", "FCODE": "OVL", "FUNC": "VF", "YEAR": 0, "Z": 27.46, "DATEREG": "1997-07-07", "DATECHANGE": "2021-01-06", "utm_x": 580049.52, "utm_y": 6563178.55 }, "geometry": { "type": "Point", "coordinates": [ 10.401528915429507, 59.200135034874258 ] } },
{ "type": "Feature", "properties": { "PSID": 17765, "REF": "MA684", "STATION": "LOFTERØD SYD", "FCODE": "OVL", "FUNC": "SK", "YEAR": 0, "Z": 26.98, "DATEREG": "1997-07-07", "DATECHANGE": "2021-01-06", "utm_x": 579836.74, "utm_y": 6562680.4 }, "geometry": { "type": "Point", "coordinates": [ 10.397622077627474, 59.195702887323073 ] } },
{ "type": "Feature", "properties": { "PSID": 19070, "REF": "OS661", "STATION": "Amundrødveien", "FCODE": "OVL", "FUNC": "AK", "YEAR": 0, "Z": 16.04, "DATEREG": "1997-07-07", "DATECHANGE": "2023-09-15", "utm_x": 579094.75, "utm_y": 6568335.72 }, "geometry": { "type": "Point", "coordinates": [ 10.386695523243395, 59.246613657137296 ] } },
{ "type": "Feature", "properties": { "PSID": 22452, "REF": "OS601", "STATION": "ØRSNES", "FCODE": "OVL", "FUNC": "SA", "YEAR": 0, "Z": 2.09, "DATEREG": "1997-07-07", "DATECHANGE": "2021-01-06", "utm_x": 581031.06, "utm_y": 6569610.12 }, "geometry": { "type": "Point", "coordinates": [ 10.421107305057758, 59.25768856994307 ] } },
{ "type": "Feature", "properties": { "PSID": 22777, "REF": "OS667", "STATION": "Ramdal", "FCODE": "OVL", "FUNC": "SA", "YEAR": 0, "Z": 4.82, "DATEREG": "1997-07-07", "DATECHANGE": "2025-09-29", "utm_x": 579416.3, "utm_y": 6570319.4 }, "geometry": { "type": "Point", "coordinates": [ 10.393057664165417, 59.264362237999862 ] } },
{ "type": "Feature", "properties": { "PSID": 22783, "REF": "OS690", "STATION": "Ramdal", "FCODE": "OVL", "FUNC": "SK", "YEAR": 0, "Z": 2.29, "DATEREG": "1997-07-07", "DATECHANGE": "2023-09-15", "utm_x": 579431.71, "utm_y": 6570389.85 }, "geometry": { "type": "Point", "coordinates": [ 10.393353708888606, 59.264991819338945 ] } },
{ "type": "Feature", "properties": { "PSID": 23690, "REF": "OS745", "STATION": "Ulvåsveien", "FCODE": "OVL", "FUNC": "SK", "YEAR": 1996, "Z": 1.44, "DATEREG": "1996-09-18", "DATECHANGE": "2023-09-15", "utm_x": 582845.78, "utm_y": 6563322.45 }, "geometry": { "type": "Point", "coordinates": [ 10.450523507265132, 59.200890116094435 ] } },
{ "type": "Feature", "properties": { "PSID": 23878, "REF": "OS702", "STATION": "Duken syd", "FCODE": "OVL", "FUNC": "SK", "YEAR": 1993, "Z": 1.42, "DATEREG": "1996-12-20", "DATECHANGE": "2022-06-29", "utm_x": 583129.03, "utm_y": 6564570.4 }, "geometry": { "type": "Point", "coordinates": [ 10.455957882223384, 59.21203813149824 ] } },
{ "type": "Feature", "properties": { "PSID": 23893, "REF": "OS701", "STATION": "Duken nord", "FCODE": "OVL", "FUNC": "SK", "YEAR": 1993, "Z": 1.62, "DATEREG": "1996-12-20", "DATECHANGE": "2022-06-22", "utm_x": 583225.57, "utm_y": 6565111.74 }, "geometry": { "type": "Point", "coordinates": [ 10.457855309611448, 59.216879043580995 ] } },
{ "type": "Feature", "properties": { "PSID": 24193, "REF": "OS703", "STATION": "Neslund", "FCODE": "OVL", "FUNC": "SK", "YEAR": 1994, "Z": 0.95, "DATEREG": "1997-02-14", "DATECHANGE": "2022-06-23", "utm_x": 582880.01, "utm_y": 6565827.9 }, "geometry": { "type": "Point", "coordinates": [ 10.452077526762396, 59.223376024692051 ] } },
{ "type": "Feature", "properties": { "PSID": 24593, "REF": "OS688", "STATION": "Kjernåsveien", "FCODE": "OVL", "FUNC": "SA", "YEAR": 1994, "Z": 24.7, "DATEREG": "1997-09-11", "DATECHANGE": "2023-09-15", "utm_x": 580015.99, "utm_y": 6567813.26 }, "geometry": { "type": "Point", "coordinates": [ 10.402648525098789, 59.241750158758599 ] } },
{ "type": "Feature", "properties": { "PSID": 24809, "REF": "OS686", "STATION": "Danholmen", "FCODE": "OVL", "FUNC": "SK", "YEAR": 1991, "Z": 1.72, "DATEREG": "1997-12-03", "DATECHANGE": "2023-09-15", "utm_x": 579132.28, "utm_y": 6570504.45 }, "geometry": { "type": "Point", "coordinates": [ 10.38814489649182, 59.266076752327535 ] } },
{ "type": "Feature", "properties": { "PSID": 26084, "REF": "OS729", "STATION": "Stangeby", "FCODE": "OVL", "FUNC": "SK", "YEAR": 1997, "Z": 6.18, "DATEREG": "1998-10-08", "DATECHANGE": "2023-09-15", "utm_x": 580529.9, "utm_y": 6565098.88 }, "geometry": { "type": "Point", "coordinates": [ 10.41064758476911, 59.217284148135889 ] } },
{ "type": "Feature", "properties": { "PSID": 26294, "REF": "OS606", "STATION": "Skjæret", "FCODE": "OVL", "FUNC": "SA", "YEAR": 1998, "Z": 6.06, "DATEREG": "1998-12-15", "DATECHANGE": "2023-09-15", "utm_x": 581297.84, "utm_y": 6567874.14 }, "geometry": { "type": "Point", "coordinates": [ 10.425133659913534, 59.242052629117254 ] } },
{ "type": "Feature", "properties": { "PSID": 27255, "REF": "OS709", "STATION": "Rektorveien", "FCODE": "OVL", "FUNC": "SK", "YEAR": 0, "Z": 0.0, "DATEREG": "2000-09-27", "DATECHANGE": "2023-09-15", "utm_x": 580202.96, "utm_y": 6565785.94 }, "geometry": { "type": "Point", "coordinates": [ 10.405176105860505, 59.223514293581005 ] } },
{ "type": "Feature", "properties": { "PSID": 27356, "REF": "OS663", "STATION": "Munkerekka båt", "FCODE": "OVL", "FUNC": "SK", "YEAR": 2018, "Z": 1.7, "DATEREG": "2000-12-15", "DATECHANGE": "2023-09-15", "utm_x": 579092.94, "utm_y": 6568935.23 }, "geometry": { "type": "Point", "coordinates": [ 10.386882415869247, 59.251996196191328 ] } },
{ "type": "Feature", "properties": { "PSID": 29109, "REF": "OS732", "STATION": "Tørkopp", "FCODE": "OVL", "FUNC": "SK", "YEAR": 2020, "Z": 6.03, "DATEREG": "2005-11-22", "DATECHANGE": "2023-09-15", "utm_x": 579029.7, "utm_y": 6567348.73 }, "geometry": { "type": "Point", "coordinates": [ 10.385196000292572, 59.237764918738286 ] } },
{ "type": "Feature", "properties": { "PSID": 29536, "REF": "OS731", "STATION": "GRENSEGATEN", "FCODE": "OVL", "FUNC": "VA", "YEAR": 2005, "Z": 4.24, "DATEREG": "2006-09-18", "DATECHANGE": "2021-01-06", "utm_x": 580967.78, "utm_y": 6569522.89 }, "geometry": { "type": "Point", "coordinates": [ 10.419965326919606, 59.256917568381155 ] } },
{ "type": "Feature", "properties": { "PSID": 29596, "REF": "OS697", "STATION": "Konvallveien", "FCODE": "OVL", "FUNC": "AK", "YEAR": 1994, "Z": 0.0, "DATEREG": "2006-12-05", "DATECHANGE": "2023-09-15", "utm_x": 579220.76, "utm_y": 6567400.43 }, "geometry": { "type": "Point", "coordinates": [ 10.388562541392004, 59.23819338042707 ] } },
{ "type": "Feature", "properties": { "PSID": 29656, "REF": "OS720", "STATION": "Hella", "FCODE": "OVL", "FUNC": "SK", "YEAR": 1993, "Z": 3.8, "DATEREG": "2007-04-20", "DATECHANGE": "2023-09-15", "utm_x": 579088.0, "utm_y": 6566724.02 }, "geometry": { "type": "Point", "coordinates": [ 10.385989944452229, 59.232145586945016 ] } },
{ "type": "Feature", "properties": { "PSID": 29796, "REF": "OS727", "STATION": "Fjærholmen", "FCODE": "OVL", "FUNC": "SK", "YEAR": 0, "Z": 0.0, "DATEREG": "2008-04-29", "DATECHANGE": "2023-09-15", "utm_x": 583491.18, "utm_y": 6565903.12 }, "geometry": { "type": "Point", "coordinates": [ 10.462810244331402, 59.223931368819045 ] } },
{ "type": "Feature", "properties": { "PSID": 29797, "REF": "OS704", "STATION": "Knarberg", "FCODE": "OVL", "FUNC": "SK", "YEAR": 0, "Z": 0.0, "DATEREG": "2008-04-29", "DATECHANGE": "2023-09-15", "utm_x": 583042.44, "utm_y": 6564167.97 }, "geometry": { "type": "Point", "coordinates": [ 10.454288212538295, 59.208442297472807 ] } },
{ "type": "Feature", "properties": { "PSID": 29798, "REF": "OS736", "STATION": "Aarsland", "FCODE": "OVL", "FUNC": "SK", "YEAR": 0, "Z": 0.0, "DATEREG": "2008-04-29", "DATECHANGE": "2023-09-15", "utm_x": 582148.61, "utm_y": 6566266.71 }, "geometry": { "type": "Point", "coordinates": [ 10.439433854602736, 59.227457812947357 ] } },
{ "type": "Feature", "properties": { "PSID": 29799, "REF": "OS726", "STATION": "Hjemseng", "FCODE": "OVL", "FUNC": "SK", "YEAR": 0, "Z": 0.0, "DATEREG": "2008-04-29", "DATECHANGE": "2023-09-15", "utm_x": 582329.78, "utm_y": 6565643.93 }, "geometry": { "type": "Point", "coordinates": [ 10.442371215819831, 59.221831660397022 ] } },
{ "type": "Feature", "properties": { "PSID": 29800, "REF": "OS711", "STATION": "Myrasundet", "FCODE": "OVL", "FUNC": "SK", "YEAR": 0, "Z": 0.0, "DATEREG": "2008-04-29", "DATECHANGE": "2023-09-15", "utm_x": 583076.15, "utm_y": 6567310.27 }, "geometry": { "type": "Point", "coordinates": [ 10.456079682396751, 59.236645495761422 ] } },
{ "type": "Feature", "properties": { "PSID": 29801, "REF": "OS699", "STATION": "ARÅS", "FCODE": "OVL", "FUNC": "SK", "YEAR": 0, "Z": 1.74, "DATEREG": "2008-04-29", "DATECHANGE": "2020-08-06", "utm_x": 583038.87, "utm_y": 6563008.51 }, "geometry": { "type": "Point", "coordinates": [ 10.453783227424221, 59.19803397963404 ] } },
{ "type": "Feature", "properties": { "PSID": 29804, "REF": "OS717", "STATION": "Nilsåsveien", "FCODE": "OVL", "FUNC": "SK", "YEAR": 0, "Z": 0.0, "DATEREG": "2008-04-29", "DATECHANGE": "2023-09-15", "utm_x": 583198.72, "utm_y": 6566546.24 }, "geometry": { "type": "Point", "coordinates": [ 10.457934422823733, 59.229762432031798 ] } },
{ "type": "Feature", "properties": { "PSID": 29805, "REF": "OS722", "STATION": "Buerstad", "FCODE": "OVL", "FUNC": "--", "YEAR": 0, "Z": 0.0, "DATEREG": "2008-04-29", "DATECHANGE": "2023-09-15", "utm_x": 581403.51, "utm_y": 6559762.31 }, "geometry": { "type": "Point", "coordinates": [ 10.423950081105312, 59.169207743074558 ] } },
{ "type": "Feature", "properties": { "PSID": 29806, "REF": "OS724", "STATION": "Breidablikk", "FCODE": "OVL", "FUNC": "SK", "YEAR": 0, "Z": 0.0, "DATEREG": "2008-04-29", "DATECHANGE": "2023-09-15", "utm_x": 583231.64, "utm_y": 6565284.01 }, "geometry": { "type": "Point", "coordinates": [ 10.458027559409013, 59.218424394567393 ] } },
{ "type": "Feature", "properties": { "PSID": 29808, "REF": "OS728", "STATION": "Tenvik", "FCODE": "OVL", "FUNC": "SK", "YEAR": 0, "Z": 0.0, "DATEREG": "2008-04-30", "DATECHANGE": "2023-09-15", "utm_x": 578067.45, "utm_y": 6560310.91 }, "geometry": { "type": "Point", "coordinates": [ 10.365810109556579, 59.174759183073249 ] } },
{ "type": "Feature", "properties": { "PSID": 29821, "REF": "OS721", "STATION": "Nesbryggen", "FCODE": "OVL", "FUNC": "VS", "YEAR": 0, "Z": 0.0, "DATEREG": "2008-05-06", "DATECHANGE": "2023-09-15", "utm_x": 583191.96, "utm_y": 6565667.85 }, "geometry": { "type": "Point", "coordinates": [ 10.457479644652674, 59.221878080006285 ] } },
{ "type": "Feature", "properties": { "PSID": 29831, "REF": "OS725", "STATION": "Øhre", "FCODE": "OVL", "FUNC": "SK", "YEAR": 0, "Z": 0.0, "DATEREG": "2008-06-12", "DATECHANGE": "2023-09-15", "utm_x": 581524.74, "utm_y": 6567072.53 }, "geometry": { "type": "Point", "coordinates": [ 10.428808663697655, 59.234812550209575 ] } },
{ "type": "Feature", "properties": { "PSID": 30010, "REF": "OS658", "STATION": "Tørkopp", "FCODE": "OVL", "FUNC": "VSA", "YEAR": 0, "Z": 9.16, "DATEREG": "2008-10-01", "DATECHANGE": "2021-01-06", "utm_x": 579054.23, "utm_y": 6567323.0 }, "geometry": { "type": "Point", "coordinates": [ 10.385616434588583, 59.237529346208419 ] } },
{ "type": "Feature", "properties": { "PSID": 30014, "REF": "OS738", "STATION": "Glomstein", "FCODE": "OVL", "FUNC": "--", "YEAR": 0, "Z": 0.0, "DATEREG": "2008-10-02", "DATECHANGE": "2021-01-06", "utm_x": 578252.1, "utm_y": 6562695.39 }, "geometry": { "type": "Point", "coordinates": [ 10.369896036485876, 59.196132635796104 ] } },
{ "type": "Feature", "properties": { "PSID": 31098, "REF": "OS742", "STATION": "Herstad", "FCODE": "OVL", "FUNC": "VS", "YEAR": 2010, "Z": 0.0, "DATEREG": "2010-08-11", "DATECHANGE": "2023-09-15", "utm_x": 580230.63, "utm_y": 6567285.78 }, "geometry": { "type": "Point", "coordinates": [ 10.406214785554335, 59.236974050990547 ] } },
{ "type": "Feature", "properties": { "PSID": 31132, "REF": "OS605", "STATION": "OS605 Bekkeveien", "FCODE": "OVL", "FUNC": "SA", "YEAR": 2009, "Z": 6.26, "DATEREG": "2010-10-07", "DATECHANGE": "2021-12-14", "utm_x": 581095.51, "utm_y": 6568408.96 }, "geometry": { "type": "Point", "coordinates": [ 10.421788021943533, 59.24689278154343 ] } },
{ "type": "Feature", "properties": { "PSID": 31160, "REF": "OS739", "STATION": "Tokenes", "FCODE": "OVL", "FUNC": "AK", "YEAR": 2009, "Z": 6.14, "DATEREG": "2010-10-19", "DATECHANGE": "2023-09-15", "utm_x": 579109.65, "utm_y": 6560396.81 }, "geometry": { "type": "Point", "coordinates": [ 10.384068714553278, 59.175337524443918 ] } },
{ "type": "Feature", "properties": { "PSID": 31248, "REF": "OS665", "STATION": "Strandheimveien", "FCODE": "OVL", "FUNC": "SK", "YEAR": 2010, "Z": 4.82, "DATEREG": "2011-01-24", "DATECHANGE": "2023-09-15", "utm_x": 579103.78, "utm_y": 6569176.86 }, "geometry": { "type": "Point", "coordinates": [ 10.387160575853898, 59.254163443204035 ] } },
{ "type": "Feature", "properties": { "PSID": 31276, "REF": "OS740", "STATION": "Kirkeveien v Unitor", "FCODE": "OVL", "FUNC": "AK", "YEAR": 2008, "Z": 5.11, "DATEREG": "2011-04-13", "DATECHANGE": "2023-09-15", "utm_x": 579061.93, "utm_y": 6559981.92 }, "geometry": { "type": "Point", "coordinates": [ 10.383083662669284, 59.171621617114866 ] } },
{ "type": "Feature", "properties": { "PSID": 32879, "REF": "OS743", "STATION": "HJEMSENG", "FCODE": "OVL", "FUNC": "SK", "YEAR": 2011, "Z": 0.0, "DATEREG": "2011-10-25", "DATECHANGE": "2021-01-06", "utm_x": 582328.9, "utm_y": 6565637.37 }, "geometry": { "type": "Point", "coordinates": [ 10.442353319091252, 59.221772938967895 ] } },
{ "type": "Feature", "properties": { "PSID": 41734, "REF": "OS694", "STATION": "Ekenessundet", "FCODE": "OVL", "FUNC": "SK", "YEAR": 2014, "Z": 3.44, "DATEREG": "2014-11-19", "DATECHANGE": "2023-09-15", "utm_x": 582160.14, "utm_y": 6566973.09 }, "geometry": { "type": "Point", "coordinates": [ 10.439903042401994, 59.233797095796319 ] } },
{ "type": "Feature", "properties": { "PSID": 42408, "REF": "OS696", "STATION": "Konvallveien", "FCODE": "OVL", "FUNC": "SA", "YEAR": 2014, "Z": 30.24, "DATEREG": "2015-01-13", "DATECHANGE": "2023-09-15", "utm_x": 579264.8, "utm_y": 6567416.09 }, "geometry": { "type": "Point", "coordinates": [ 10.38933991955566, 59.238325733092957 ] } },
{ "type": "Feature", "properties": { "PSID": 50120, "REF": "OS124", "STATION": "Kilsveien", "FCODE": "OVL", "FUNC": "SK", "YEAR": 2007, "Z": 1.25, "DATEREG": "2008-09-25", "DATECHANGE": "2023-09-15", "utm_x": 582542.81, "utm_y": 6549829.76 }, "geometry": { "type": "Point", "coordinates": [ 10.44012441509725, 59.079817168349614 ] } },
{ "type": "Feature", "properties": { "PSID": 50162, "REF": "OS125", "STATION": "Sandøysund", "FCODE": "OVL", "FUNC": "SK", "YEAR": 0, "Z": 1.73, "DATEREG": "2008-09-25", "DATECHANGE": "2023-09-15", "utm_x": 583172.45, "utm_y": 6550090.2 }, "geometry": { "type": "Point", "coordinates": [ 10.451204399846207, 59.082032928865175 ] } },
{ "type": "Feature", "properties": { "PSID": 50628, "REF": "OS132", "STATION": "Medø", "FCODE": "OVL", "FUNC": "SK", "YEAR": 2017, "Z": 1.61, "DATEREG": "2018-03-02", "DATECHANGE": "2025-02-18", "utm_x": 581562.19, "utm_y": 6554574.71 }, "geometry": { "type": "Point", "coordinates": [ 10.424787891977264, 59.122604793891391 ] } },
{ "type": "Feature", "properties": { "PSID": 51374, "REF": "OS108", "STATION": "Ferjeodden", "FCODE": "OVL", "FUNC": "SK", "YEAR": 2017, "Z": 1.57, "DATEREG": "2018-06-27", "DATECHANGE": "2025-02-18", "utm_x": 579561.15, "utm_y": 6559580.26 }, "geometry": { "type": "Point", "coordinates": [ 10.391667349776425, 59.16792239593677 ] } },
{ "type": "Feature", "properties": { "PSID": 53611, "REF": "OS744", "STATION": "Rosanes", "FCODE": "OVL", "FUNC": "SAO", "YEAR": 2018, "Z": 1.22, "DATEREG": "2019-02-11", "DATECHANGE": "2023-09-15", "utm_x": 581338.62, "utm_y": 6569106.02 }, "geometry": { "type": "Point", "coordinates": [ 10.426310178433017, 59.253104025031497 ] } },
{ "type": "Feature", "properties": { "PSID": 54243, "REF": "OS747", "STATION": "Sevika", "FCODE": "OVL", "FUNC": "SK", "YEAR": 2015, "Z": 1.46, "DATEREG": "2019-08-16", "DATECHANGE": "2023-09-15", "utm_x": 579522.26, "utm_y": 6560781.0 }, "geometry": { "type": "Point", "coordinates": [ 10.391425261588614, 59.178709627779313 ] } },
{ "type": "Feature", "properties": { "PSID": 54311, "REF": "OS103", "STATION": "Budal", "FCODE": "OVL", "FUNC": "SK", "YEAR": 2019, "Z": 1.61, "DATEREG": "2019-08-28", "DATECHANGE": "2025-08-14", "utm_x": 579186.77, "utm_y": 6555181.55 }, "geometry": { "type": "Point", "coordinates": [ 10.383526209903946, 59.128501533627215 ] } },
{ "type": "Feature", "properties": { "PSID": 57258, "REF": "OS134", "STATION": "Dalsveien Syd", "FCODE": "OVL", "FUNC": "SK", "YEAR": 2020, "Z": 3.55, "DATEREG": "2020-11-05", "DATECHANGE": "2023-09-15", "utm_x": 581185.73, "utm_y": 6553689.95 }, "geometry": { "type": "Point", "coordinates": [ 10.417885746583377, 59.114733640381495 ] } },
{ "type": "Feature", "properties": { "PSID": 58520, "REF": "OS180", "STATION": "OS180 Korsholmveien", "FCODE": "OVL", "FUNC": "AO", "YEAR": 2020, "Z": 33.78, "DATEREG": "2021-03-03", "DATECHANGE": "2021-12-14", "utm_x": 579715.39, "utm_y": 6553859.27 }, "geometry": { "type": "Point", "coordinates": [ 10.392277194514, 59.11653163007059 ] } },
{ "type": "Feature", "properties": { "PSID": 60717, "REF": "OS131", "STATION": "Gon", "FCODE": "OVL", "FUNC": "SK", "YEAR": 2015, "Z": 0.0, "DATEREG": "2022-02-08", "DATECHANGE": "2023-09-15", "utm_x": 579985.4, "utm_y": 6552193.53 }, "geometry": { "type": "Point", "coordinates": [ 10.396383088081091, 59.101526260293689 ] } },
{ "type": "Feature", "properties": { "PSID": 60934, "REF": "OS748", "STATION": "Munkerekkveien midlertidig", "FCODE": "OVL", "FUNC": "SO", "YEAR": 2021, "Z": 0.0, "DATEREG": "2022-03-11", "DATECHANGE": "2023-09-15", "utm_x": 579464.04, "utm_y": 6570178.64 }, "geometry": { "type": "Point", "coordinates": [ 10.393843173008928, 59.263089586969897 ] } },
{ "type": "Feature", "properties": { "PSID": 62806, "REF": "OS114", "STATION": "Flekken", "FCODE": "OVL", "FUNC": "SK", "YEAR": 2013, "Z": 0.0, "DATEREG": "2022-11-23", "DATECHANGE": "2022-11-23", "utm_x": 581010.64, "utm_y": 6557055.54 }, "geometry": { "type": "Point", "coordinates": [ 10.416075674617099, 59.144982329488869 ] } },
{ "type": "Feature", "properties": { "PSID": 62872, "REF": "OS713", "STATION": "Munkerekka syd", "FCODE": "OVL", "FUNC": "SK", "YEAR": 2022, "Z": 0.0, "DATEREG": "2022-12-07", "DATECHANGE": "2023-09-15", "utm_x": 579025.35, "utm_y": 6568638.08 }, "geometry": { "type": "Point", "coordinates": [ 10.385589362557093, 59.249341102100466 ] } },
{ "type": "Feature", "properties": { "PSID": 62988, "REF": "OS107", "STATION": "Mølledammen", "FCODE": "OVL", "FUNC": "SK", "YEAR": 0, "Z": 0.0, "DATEREG": "2023-01-06", "DATECHANGE": "2023-09-15", "utm_x": 579274.16, "utm_y": 6558627.83 }, "geometry": { "type": "Point", "coordinates": [ 10.386303026848671, 59.159425333270732 ] } },
{ "type": "Feature", "properties": { "PSID": 62989, "REF": "OS109", "STATION": "Sundene", "FCODE": "OVL", "FUNC": "SK", "YEAR": 0, "Z": 0.0, "DATEREG": "2023-01-06", "DATECHANGE": "2023-09-15", "utm_x": 579922.68, "utm_y": 6559357.75 }, "geometry": { "type": "Point", "coordinates": [ 10.397907456334867, 59.165856897752725 ] } },
{ "type": "Feature", "properties": { "PSID": 62990, "REF": "OS122", "STATION": "Risbrua", "FCODE": "OVL", "FUNC": "SK", "YEAR": 2000, "Z": 0.0, "DATEREG": "2023-01-06", "DATECHANGE": "2023-09-15", "utm_x": 581915.77, "utm_y": 6549866.21 }, "geometry": { "type": "Point", "coordinates": [ 10.429202009627277, 59.080265357017538 ] } },
{ "type": "Feature", "properties": { "PSID": 63005, "REF": "OS129", "STATION": "Havna", "FCODE": "OVL", "FUNC": "SK", "YEAR": 2008, "Z": 0.0, "DATEREG": "2023-01-06", "DATECHANGE": "2023-09-15", "utm_x": 581108.77, "utm_y": 6550415.37 }, "geometry": { "type": "Point", "coordinates": [ 10.415330123576654, 59.085349908087984 ] } },
{ "type": "Feature", "properties": { "PSID": 64321, "REF": "OS710", "STATION": null, "FCODE": "OVL", "FUNC": "SK", "YEAR": 2022, "Z": 0.0, "DATEREG": "2023-08-23", "DATECHANGE": "2023-09-22", "utm_x": 580705.61, "utm_y": 6566376.79 }, "geometry": { "type": "Point", "coordinates": [ 10.414199060040094, 59.228723302732405 ] } },
{ "type": "Feature", "properties": { "PSID": 64398, "REF": "OS111", "STATION": "Mågerøodden", "FCODE": "OVL", "FUNC": "SK", "YEAR": 0, "Z": 0.0, "DATEREG": "2023-09-15", "DATECHANGE": "2025-02-18", "utm_x": 582131.35, "utm_y": 6558350.95 }, "geometry": { "type": "Point", "coordinates": [ 10.436145945847475, 59.15639702692539 ] } },
{ "type": "Feature", "properties": { "PSID": 64399, "REF": "OS112", "STATION": "Mågerø Marina", "FCODE": "OVL", "FUNC": "--", "YEAR": 0, "Z": 0.0, "DATEREG": "2023-09-15", "DATECHANGE": "2025-02-18", "utm_x": 581935.93, "utm_y": 6557935.15 }, "geometry": { "type": "Point", "coordinates": [ 10.432574025330599, 59.152701850491823 ] } },
{ "type": "Feature", "properties": { "PSID": 64400, "REF": "OS113", "STATION": "Vallekjær", "FCODE": "OVL", "FUNC": "--", "YEAR": 0, "Z": 0.0, "DATEREG": "2023-09-15", "DATECHANGE": "2025-02-18", "utm_x": 581373.9, "utm_y": 6557546.71 }, "geometry": { "type": "Point", "coordinates": [ 10.422606222366662, 59.149322528915697 ] } },
{ "type": "Feature", "properties": { "PSID": 67462, "REF": "OS735", "STATION": "OS735 Hjertnes", "FCODE": "OVL", "FUNC": "SK", "YEAR": 2024, "Z": 0.0, "DATEREG": "2024-12-19", "DATECHANGE": "2025-02-21", "utm_x": 581325.85, "utm_y": 6568510.91 }, "geometry": { "type": "Point", "coordinates": [ 10.425863177326681, 59.247763869518145 ] } },
{ "type": "Feature", "properties": { "PSID": 68249, "REF": "OS 120", "STATION": "Inne i pumpestasjon.", "FCODE": "OVL", "FUNC": "SK", "YEAR": 1982, "Z": 0.0, "DATEREG": "2025-05-27", "DATECHANGE": "2025-05-28", "utm_x": 581180.05, "utm_y": 6553895.88 }, "geometry": { "type": "Point", "coordinates": [ 10.417862951448649, 59.116583508218035 ] } },
{ "type": "Feature", "properties": { "PSID": 68813, "REF": null, "STATION": null, "FCODE": "OVL", "FUNC": "SK", "YEAR": 2025, "Z": 0.0, "DATEREG": "2025-07-31", "DATECHANGE": "2025-11-17", "utm_x": 582208.75, "utm_y": 6565945.72 }, "geometry": { "type": "Point", "coordinates": [ 10.440365794447342, 59.224564466938375 ] } }
]
}
